[{"address":"Lower River Tce \/ Ellis St","coordinates":null,"id":122,"latitude":-27.482279,"longitude":153.028723,"name":"122 - LOWER RIVER TCE \/ ELLIS ST","position":null,"clusters":1},{"address":"Main St \/ Darragh St","coordinates":null,"id":91,"latitude":-27.47059,"longitude":153.036046,"name":"91 - MAIN ST \/ DARRAGH ST","position":null,"clusters":0},{"address":"Browne St \/ James St","coordinates":null,"id":75,"latitude":-27.461881,"longitude":153.046986,"name":"75 - BROWNE ST \/ JAMES ST","position":null,"clusters":0},{"address":"Kurilpa Point \/ Montague Rd","coordinates":null,"id":99,"latitude":-27.469658,"longitude":153.016696,"name":"98 - KURILPA POINT \/ MONTAGUE RD","position":null,"clusters":1},{"address":"Montague Rd \/ Skinner St","coordinates":null,"id":109,"latitude":-27.48172,"longitude":153.00436,"name":"109 - MONTAGUE RD \/ SKINNER ST","position":null,"clusters":1},{"address":"Macquarie St \/ Guyatt Park","coordinates":null,"id":149,"latitude":-27.493626,"longitude":153.001482,"name":null,"position":null,"clusters":1},{"address":"Bi-centennial Bike Way \/ Lang Pde","coordinates":null,"id":139,"latitude":-27.476076,"longitude":153.002459,"name":"139 - BI-CENTENNIAL BIKE WAY \/ LANG PDE","position":null,"clusters":1},{"address":"Sir William McGregor Dr \/ Sir Fred Schonnell","coordinates":null,"id":24,"latitude":-27.493963,"longitude":153.011938,"name":"24 - SIR WILLIAM MCGREGOR DR \/ SIR FRED SCHONNELL","position":null,"clusters":1},{"address":"Vulture St \/ Tribune St","coordinates":null,"id":117,"latitude":-27.482197,"longitude":153.020894,"name":"117 - VULTURE ST \/ TRIBUNE ST","position":null,"clusters":1},{"address":"Lamington St \/ Refinery Pde","coordinates":null,"id":73,"latitude":-27.465226,"longitude":153.050864,"name":"73 - LAMINGTON ST \/ REFINERY PDE","position":null,"clusters":0},{"address":"King George Square 2","coordinates":null,"id":1101,"latitude":-27.468447,"longitude":153.024662,"name":"1101 - KING GEORGE SQUARE 2","position":null,"clusters":0},{"address":"Mary St \/ George St","coordinates":null,"id":23,"latitude":-27.473021,"longitude":153.025988,"name":"23 - MARY STREET \/ GEORGE STREET","position":null,"clusters":0},{"address":"McLachlan St \/ Winn St","coordinates":null,"id":54,"latitude":-27.457825,"longitude":153.036866,"name":"54 - MCLACHLAN ST \/ WINN ST","position":null,"clusters":0},{"address":"Grey St \/ QCA","coordinates":null,"id":93,"latitude":-27.48148,"longitude":153.02368,"name":"93 - GREY ST \/ QCA","position":null,"clusters":1},{"address":"Roma St \/ Turbot St","coordinates":null,"id":31,"latitude":-27.467464,"longitude":153.022094,"name":"31 - ROMA ST \/ TURBOT ST","position":null,"clusters":0},{"address":"Thynne Rd \/ College Rd","coordinates":null,"id":97,"latitude":-27.499963,"longitude":153.017633,"name":"97 - THYNNE RD \/ COLLEGE RD","position":null,"clusters":1},{"address":"Sandford St \/ Brisbane St","coordinates":null,"id":147,"latitude":-27.490776,"longitude":152.994747,"name":"147 - SANDFORD ST \/ BRISBANE ST","position":"UK","clusters":1},{"address":"James St \/ Harcourt St","coordinates":null,"id":77,"latitude":-27.458199,"longitude":153.041688,"name":"77 - JAMES ST \/ HARCOURT ST","position":null,"clusters":0},{"address":"Sidon St \/ Little Stanley St","coordinates":null,"id":119,"latitude":-27.481808,"longitude":153.025477,"name":"119 - SIDON ST \/ LITTLE STANLEY ST","position":null,"clusters":1},{"address":"Commercial Rd \/ Teneriffe Ferry Terminal","coordinates":null,"id":67,"latitude":-27.452027,"longitude":153.04911,"name":"67 - COMMERCIAL RD \/ TENERIFFE FERRY TERMINAL","position":null,"clusters":0},{"address":"Turbot St \/ Wickham Tce","coordinates":null,"id":39,"latitude":-27.464628,"longitude":153.026863,"name":"39 - TURBOT ST \/ WICKHAM TCE","position":null,"clusters":0},{"address":"Alden St \/ Wickham St","coordinates":null,"id":55,"latitude":-27.456085,"longitude":153.03453,"name":"55 - ALDEN ST \/ WICKHAM ST","position":null,"clusters":0},{"address":"Roma St \/ Makerston St","coordinates":null,"id":35,"latitude":-27.46637,"longitude":153.018506,"name":"35 - ROMA STREET \/ MAKERSTON STREET","position":null,"clusters":1},{"address":"Macquarie St \/ Munro St","coordinates":null,"id":150,"latitude":-27.492876,"longitude":153.006071,"name":"150 - MACQUARIE ST \/ MUNRO ST","position":null,"clusters":1},{"address":"Barker St \/ Brunswick St","coordinates":null,"id":80,"latitude":-27.464681,"longitude":153.042561,"name":"80 - BARKER ST \/ BRUNSWICK ST","position":null,"clusters":0},{"address":"Malt St \/ Brunswick St","coordinates":null,"id":78,"latitude":-27.461041,"longitude":153.037902,"name":"78 - MALT ST \/ BRUNSWICK ST","position":null,"clusters":0},{"address":"Chermside St \/ Commercial Rd","coordinates":null,"id":65,"latitude":-27.454482,"longitude":153.046802,"name":"65 - CHERMSIDE ST \/ COMMERCIAL RD","position":null,"clusters":0},{"address":"Queen St \/ Adelaide St","coordinates":null,"id":44,"latitude":-27.463405,"longitude":153.031142,"name":"44 - QUEEN STREET \/ ADELAIDE STREET","position":null,"clusters":0},{"address":"Constance St \/ St Pauls Tce","coordinates":null,"id":56,"latitude":-27.453717,"longitude":153.034042,"name":"56 - CONSTANCE ST \/ ST PAULS TCE","position":null,"clusters":0},{"address":"Gipps St \/ Wickham St","coordinates":null,"id":50,"latitude":-27.458641,"longitude":153.03208,"name":"50 - GIPPS ST \/ WICKHAM ST","position":null,"clusters":0},{"address":"Stanley St \/ Melbourne St","coordinates":null,"id":95,"latitude":-27.475039,"longitude":153.020323,"name":"95 - STANLEY ST \/ MELBOURNE ST","position":null,"clusters":1},{"address":"Coronation Dr \/ Go Between Bridge","coordinates":null,"id":133,"latitude":-27.468839,"longitude":153.011115,"name":"133 - CORONATION DR \/ GO BETWEEN BRIDGE","position":null,"clusters":1},{"address":"Vernon Tce \/ Ethel St","coordinates":null,"id":68,"latitude":-27.454394,"longitude":153.049519,"name":"68 - VERNON TCE \/ ETHEL ST","position":null,"clusters":0},{"address":"Railway Tce \/ Cribb St","coordinates":null,"id":134,"latitude":-27.468845,"longitude":153.007364,"name":"134 - RAILWAY TCE \/ CRIBB ST","position":null,"clusters":1},{"address":"Brunswick St Mall \/ Wickham St","coordinates":null,"id":52,"latitude":-27.457512,"longitude":153.033841,"name":"52 - BRUNSWICK ST MALL \/ WICKHAM ST","position":null,"clusters":0},{"address":"Turbot St \/ Barry Pde","coordinates":null,"id":47,"latitude":-27.46123,"longitude":153.031077,"name":"47 - TURBOT ST \/ BARRY PDE","position":null,"clusters":0},{"address":"Dunmore Tce \/ Kingsford St","coordinates":null,"id":140,"latitude":-27.476003,"longitude":153.000676,"name":"140 - DUNMORE TCE \/ KINGSFORD ST","position":null,"clusters":1},{"address":"Mary St \/ Albert St","coordinates":null,"id":16,"latitude":-27.472044,"longitude":153.027193,"name":"16 - MARY STREET \/ ALBERT STREET","position":null,"clusters":0},{"address":"James St \/ McLachlan St","coordinates":null,"id":59,"latitude":-27.456276,"longitude":153.039196,"name":"59 - JAMES ST \/ MCLACHLAN ST","position":null,"clusters":0},{"address":"Little Stanley St \/ Tribune St","coordinates":null,"id":18,"latitude":-27.480385,"longitude":153.023564,"name":"18 - LITTLE STANLEY ST \/ TRIBUNE ST","position":null,"clusters":1},{"address":"Queen St \/ Wharf St","coordinates":null,"id":43,"latitude":-27.465043,"longitude":153.030991,"name":"43 - QUEEN ST \/ WHARF ST","position":null,"clusters":0},{"address":"Charlotte St \/ Edward St","coordinates":null,"id":9,"latitude":-27.469924,"longitude":153.02822,"name":"9 - CHARLOTTE STREET \/ EDWARD STREET","position":null,"clusters":0},{"address":"Market St \/ Mary St","coordinates":null,"id":5,"latitude":-27.469702,"longitude":153.029828,"name":"5 - MARKET STREET \/ MARY STREET","position":null,"clusters":0},{"address":"Charlotte St \/ Eagle St","coordinates":null,"id":4,"latitude":-27.468675,"longitude":153.029834,"name":"4 - CHARLOTTE STREET \/ EAGLE STREET","position":null,"clusters":0},{"address":"King George Square \/ Ann St","coordinates":null,"id":11,"latitude":-27.468422,"longitude":153.024635,"name":"11 - KING GEORGE SQUARE \/ ANN ST","position":null,"clusters":0},{"address":"Oxlade Dr \/ Turner Ave","coordinates":null,"id":85,"latitude":-27.473304,"longitude":153.048757,"name":"85 - OXLADE DR \/ TURNER AVE","position":null,"clusters":0},{"address":"Roy St \/ Lang Pde","coordinates":null,"id":138,"latitude":-27.473888,"longitude":153.000599,"name":"138 - ROY ST \/ LANG PDE","position":null,"clusters":1},{"address":"Regatta Ferry Terminal \/ Sylvan Rd","coordinates":null,"id":143,"latitude":-27.483168,"longitude":152.996419,"name":"143 - REGATTA FERRY TERMINAL \/ SYLVAN RD","position":null,"clusters":1},{"address":"Lamington St \/ Powerhouse","coordinates":null,"id":72,"latitude":-27.467802,"longitude":153.053645,"name":"72 - LAMINGTON ST \/ POWERHOUSE","position":null,"clusters":0},{"address":"Coronation Dr \/ Archer St","coordinates":null,"id":145,"latitude":-27.485872,"longitude":152.99347,"name":"145 - CORONATION DR \/ ARCHER ST","position":null,"clusters":1},{"address":"VULTURE ST \/ STANLEY ST","coordinates":null,"id":121,"latitude":-27.483259,"longitude":153.026946,"name":"121 - VULTURE ST \/ STANLEY ST","position":null,"clusters":1},{"address":"Ann St \/ Creek St","coordinates":null,"id":40,"latitude":-27.464986,"longitude":153.027679,"name":"40 - ANN STREET \/ CREEK STREET","position":null,"clusters":0},{"address":"Blair Dr \/ Sir William McGregor Dr","coordinates":null,"id":27,"latitude":-27.494561,"longitude":153.016318,"name":"27 - BLAIR DR \/ SIR WILLIAM MACGREGOR DR","position":null,"clusters":1},{"address":"Park Rd \/ Douglas St","coordinates":null,"id":136,"latitude":-27.470987,"longitude":153.004602,"name":"136 - PARK RD \/ DOUGLAS ST","position":null,"clusters":1},{"address":"Ann St \/ Gipps St","coordinates":null,"id":49,"latitude":-27.459833,"longitude":153.033445,"name":"49 - ANN STREET \/ GIPPS STREET","position":null,"clusters":0},{"address":"Botanical Gardens \/ QUT","coordinates":null,"id":21,"latitude":-27.475922,"longitude":153.0288,"name":"21 - BOTANICAL GARDENS \/ QUT","position":null,"clusters":0},{"address":"George St \/ Ann St","coordinates":null,"id":29,"latitude":-27.469075,"longitude":153.021808,"name":"29 - GEORGE STREET \/ ANN STREET","position":null,"clusters":1},{"address":"Ann St \/ Murri Way","coordinates":null,"id":63,"latitude":-27.452468,"longitude":153.040565,"name":"63 - ANN ST \/ MURRI WAY","position":null,"clusters":0},{"address":"North Quay \/Reddacliff Place","coordinates":null,"id":26,"latitude":-27.471297,"longitude":153.02257,"name":"26 - NORTH QUAY \/ REDDACLIFF PLACE","position":null,"clusters":1},{"address":"Brunswick St \/ Merthyr Rd","coordinates":null,"id":82,"latitude":-27.467498,"longitude":153.0467,"name":"82 - BRUNSWICK ST \/ MERTHYR RD","position":null,"clusters":0},{"address":"Merthyr Rd \/ James St","coordinates":null,"id":74,"latitude":-27.463678,"longitude":153.049485,"name":"74 - MERTHYR RD \/ JAMES ST","position":null,"clusters":0},{"address":"Albert St Mall \/ Elizabeth St","coordinates":null,"id":15,"latitude":-27.47019,"longitude":153.025852,"name":"15 - ALBERT STREET MALL \/ ELIZABETH STREET","position":null,"clusters":0},{"address":"Land St \/ Coronation Dr","coordinates":null,"id":141,"latitude":-27.479453,"longitude":152.997215,"name":"141 - LAND ST \/ CORONATION DR","position":null,"clusters":1},{"address":"O'Connell St \/ Lambert St","coordinates":null,"id":130,"latitude":-27.474992,"longitude":153.037647,"name":"130 - O'CONNELL ST \/ LAMBERT ST","position":null,"clusters":0},{"address":"Ann St \/ Gotha St","coordinates":null,"id":48,"latitude":-27.46048,"longitude":153.032768,"name":"48 - ANN ST \/ GOTHA ST","position":null,"clusters":0},{"address":"Bowen Tce \/ Bradfield Hwy","coordinates":null,"id":53,"latitude":-27.461803,"longitude":153.036021,"name":"53 - BOWEN TCE \/ BRADFIELD HWY","position":null,"clusters":0},{"address":"Annerley Rd \/ Boggo Rd","coordinates":null,"id":125,"latitude":-27.494959,"longitude":153.02802,"name":"125 - ANNERLEY RD \/ BOGGO RD","position":null,"clusters":1},{"address":"Macquarie St \/ Beeston St","coordinates":null,"id":70,"latitude":-27.459091,"longitude":153.050239,"name":"70 - MACQUARIE ST \/ BEESTON ST","position":null,"clusters":0},{"address":"Merthyr Rd \/ Reginald St","coordinates":null,"id":87,"latitude":-27.469931,"longitude":153.043525,"name":"87 - MERTHYR RD \/ REGINALD ST","position":null,"clusters":0},{"address":"Albert St Mall \/ Adelaide St","coordinates":null,"id":12,"latitude":-27.468963,"longitude":153.02461,"name":"12 - ALBERT ST MALL \/ ADELAIDE ST","position":null,"clusters":0},{"address":"Vernon Tce \/ Florence St","coordinates":null,"id":69,"latitude":-27.455907,"longitude":153.050013,"name":"69 - VERNON TCE \/ FLORENCE ST","position":null,"clusters":0},{"address":"Edmondstone St \/ Vulture St","coordinates":null,"id":113,"latitude":-27.480164,"longitude":153.016181,"name":"113 - EDMONDSTONE ST \/ VULTURE ST","position":null,"clusters":1},{"address":"Bank St \/ Mollison St","coordinates":null,"id":112,"latitude":-27.476724,"longitude":153.010063,"name":"112 - BANK ST \/ MOLLISON ST","position":null,"clusters":1},{"address":"Gladstone Rd \/ Annerley Rd","coordinates":null,"id":127,"latitude":-27.497934,"longitude":153.027333,"name":"127 - GLADSTONE RD \/ ANNERLEY RD","position":null,"clusters":1},{"address":"Jane St \/ Montague Rd","coordinates":null,"id":110,"latitude":-27.478214,"longitude":153.006181,"name":"110 - JANE ST \/ MONTAGUE RD","position":null,"clusters":1},{"address":"Main St \/ Rotherham St (Mahoney Park)","coordinates":null,"id":90,"latitude":-27.469296,"longitude":153.035533,"name":"90 - MAIN ST \/ ROTHERHAM ST (MAHONEY PARK)","position":null,"clusters":0},{"address":"Little Cribb St \/ Boomerang St","coordinates":null,"id":132,"latitude":-27.467971,"longitude":153.009968,"name":"132 - LITTLE CRIBB ST \/ BOOMERANG ST","position":null,"clusters":1},{"address":"Grey St \/ Melbourne St","coordinates":null,"id":96,"latitude":-27.474722,"longitude":153.018694,"name":"96 - GREY ST \/ MELBOURNE ST","position":null,"clusters":1},{"address":"Queen St \/ Eagle St","coordinates":null,"id":2,"latitude":-27.466369,"longitude":153.029597,"name":"2 - QUEEN ST \/ EAGLE ST","position":null,"clusters":0},{"address":"Ann St \/ Chester St","coordinates":null,"id":62,"latitude":-27.453195,"longitude":153.0401,"name":"62 - ANN ST \/ CHESTER ST","position":null,"clusters":0},{"address":"Charlotte St \/ Albert St","coordinates":null,"id":123,"latitude":-27.471315,"longitude":153.026627,"name":"123 - CHARLOTTE ST \/ ALBERT ST","position":null,"clusters":0},{"address":"Vulture St \/ Thomas St","coordinates":null,"id":103,"latitude":-27.480768,"longitude":153.011121,"name":"103 - VULTURE ST \/ THOMAS ST","position":null,"clusters":1},{"address":"George St \/ Adelaide St","coordinates":null,"id":28,"latitude":-27.469902,"longitude":153.022603,"name":"28 - GEORGE ST \/ ADELAIDE ST","position":null,"clusters":1},{"address":"Wickham St \/ Brookes St","coordinates":null,"id":60,"latitude":-27.453127,"longitude":153.037559,"name":"60 - WICKHAM STREET \/ BROOKES STREET","position":null,"clusters":0},{"address":"Annerley Rd \/ Grove St","coordinates":null,"id":124,"latitude":-27.491284,"longitude":153.027138,"name":"124 - ANNERLEY ROAD \/ GROVE ST","position":null,"clusters":1},{"address":"Reddacliff Pl \/ Queen St","coordinates":null,"id":25,"latitude":-27.471332,"longitude":153.022991,"name":"25 - REDDACLIFF PL \/ QUEEN ST","position":null,"clusters":1},{"address":"Colchester St \/ Ernest St","coordinates":null,"id":114,"latitude":-27.479876,"longitude":153.021076,"name":"114 - COLCHESTER ST \/ ERNEST ST","position":null,"clusters":1},{"address":"WATERLOO ST (GASWORKS PARK) \/ NEWSTEAD TCE","coordinates":null,"id":76,"latitude":-27.448074,"longitude":153.045762,"name":"76 - WATERLOO ST (GASWORKS PARK) \/ NEWSTEAD TCE","position":null,"clusters":0},{"address":"Montague Rd \/ Brereton St","coordinates":null,"id":115,"latitude":-27.474227,"longitude":153.011164,"name":"115 - MONTAGUE RD \/ BRERETON ST","position":null,"clusters":1},{"address":"Roma St \/ Ann St","coordinates":null,"id":30,"latitude":-27.467963,"longitude":153.0231,"name":"30 - ROMA ST \/ ANN ST","position":null,"clusters":0},{"address":"Skyring Tce \/ Cunningham St","coordinates":null,"id":64,"latitude":-27.44979,"longitude":153.044925,"name":"64 - SKYRING TCE \/ CUNNINGHAM ST","position":null,"clusters":0},{"address":"Thornton St Ferry Terminal \/ Main St","coordinates":null,"id":92,"latitude":-27.471025,"longitude":153.034306,"name":"92 - THORNTON ST FERRY TERMINAL \/ MAIN ST","position":null,"clusters":0},{"address":"Melbourne St \/ Merivale St","coordinates":null,"id":118,"latitude":-27.474755,"longitude":153.016687,"name":"118 - MELBOURNE ST \/ MERIVALE ST","position":null,"clusters":1},{"address":"Hastings St \/ Macquarie St","coordinates":null,"id":71,"latitude":-27.460914,"longitude":153.04987,"name":"71 - HASTINGS ST \/ MACQUARIE ST","position":null,"clusters":0},{"address":"Park Rd \/ Railway Tce","coordinates":null,"id":135,"latitude":-27.469501,"longitude":153.004129,"name":"135 - PARK RD \/ RAILWAY TCE","position":null,"clusters":1},{"address":"Rogers St \/ Montague Rd","coordinates":null,"id":108,"latitude":-27.485078,"longitude":153.002382,"name":"108 - ROGERS ST \/ MONTAGUE RD","position":null,"clusters":1},{"address":"Donkin St \/ Montague Rd","coordinates":null,"id":111,"latitude":-27.476474,"longitude":153.008182,"name":"111 - DONKIN ST \/ MONTAGUE RD","position":"France","clusters":1},{"address":"Ann St \/ Boundary St","coordinates":null,"id":46,"latitude":-27.461984,"longitude":153.031782,"name":"46 - ANN ST \/ BOUNDARY ST","position":null,"clusters":0},{"address":"Margaret St \/ Albert St","coordinates":null,"id":17,"latitude":-27.472598,"longitude":153.028383,"name":"17 - MARGARET ST \/ ALBERT ST","position":null,"clusters":0},{"address":"Drury St \/ Montague Rd","coordinates":null,"id":107,"latitude":-27.48872,"longitude":152.999585,"name":"107 - DRURY ST \/ MONTAGUE RD","position":null,"clusters":1},{"address":"Creek St \/ Elizabeth St","coordinates":null,"id":3,"latitude":-27.467556,"longitude":153.029202,"name":"3 - CREEK ST \/ ELIZABETH ST","position":null,"clusters":0},{"address":"Holman St \/ Main St","coordinates":null,"id":89,"latitude":-27.465733,"longitude":153.034329,"name":"89 - HOLMAN ST \/ MAIN ST","position":null,"clusters":0},{"address":"Roma St \/ Herschel St","coordinates":null,"id":33,"latitude":-27.466753,"longitude":153.020012,"name":"33 - ROMA ST \/ HERSCHEL ST","position":null,"clusters":1},{"address":"Upper Roma St \/ Eagle Tce","coordinates":null,"id":37,"latitude":-27.466032,"longitude":153.01476,"name":"37 - UPPER ROMA ST \/ EAGLE TCE","position":null,"clusters":1},{"address":"Boundary St \/ Vulture St","coordinates":null,"id":120,"latitude":-27.482562,"longitude":153.011831,"name":"120 - BOUNDARY ST \/ VULTURE ST","position":null,"clusters":1},{"address":"Sydney St \/ Brunswick St","coordinates":null,"id":83,"latitude":-27.468407,"longitude":153.048273,"name":"83 - SYDNEY ST \/ BRUNSWICK ST","position":null,"clusters":0},{"address":"Gardens Point Rd \/ SE of Goodwill Bridge","coordinates":null,"id":20,"latitude":-27.478846,"longitude":153.028296,"name":"20 - GARDENS POINT RD \/ SE OF GOODWILL BRIDGE","position":null,"clusters":1},{"address":"New Farm Ferry Terminal \/ New Farm Park","coordinates":null,"id":84,"latitude":-27.471481,"longitude":153.051966,"name":"84 - NEW FARM FERRY TERMINAL \/ NEW FARM PARK","position":null,"clusters":0},{"address":"Lower River Tce \/ Parklands","coordinates":null,"id":129,"latitude":-27.478032,"longitude":153.034186,"name":"129 - LOWER RIVER TCE \/ PARKLANDS","position":null,"clusters":0},{"address":"Jane St \/ Boundary St","coordinates":null,"id":126,"latitude":-27.479149,"longitude":153.012132,"name":"126 - JANE ST \/ BOUNDARY ST","position":null,"clusters":1},{"address":"Dornoch Tce \/ Hardgrave Rd","coordinates":null,"id":105,"latitude":-27.487155,"longitude":153.007281,"name":"105 - DORNOCH TCE \/ HARDGRAVE RD","position":null,"clusters":1},{"address":"Besant St \/ Vulture St","coordinates":null,"id":102,"latitude":-27.480885,"longitude":153.014585,"name":"102 - BESANT ST \/ VULTURE ST","position":null,"clusters":1},{"address":"Glenelg St \/ Merivale St","coordinates":null,"id":94,"latitude":-27.478653,"longitude":153.019123,"name":"94 - GLENELG ST \/ MERIVALE ST","position":null,"clusters":1},{"address":"Orleigh St \/ Hoogley St","coordinates":null,"id":106,"latitude":-27.489807,"longitude":153.002405,"name":"106 - ORLEIGH ST \/ HOOGLEY ST","position":"France","clusters":1},{"address":"Melbourne St \/  Edmondstone St","coordinates":null,"id":100,"latitude":-27.47666,"longitude":153.013287,"name":"100 - MELBOURNE ST \/ EDMONDSTONE ST","position":null,"clusters":1},{"address":"Wickham St \/ Murri Way","coordinates":null,"id":61,"latitude":-27.451793,"longitude":153.039562,"name":"61 - WICKHAM ST \/ MURRI WAY","position":null,"clusters":0},{"address":"Brunswick St \/ Alfred St","coordinates":null,"id":51,"latitude":-27.45663,"longitude":153.032779,"name":"51 - BRUNSWICK ST \/ ALFRED ST","position":null,"clusters":0},{"address":"Commercial Rd \/ Skyring Tce","coordinates":null,"id":66,"latitude":-27.45296,"longitude":153.048107,"name":"66 - COMMERCIAL RD SKYRING TCE","position":null,"clusters":0},{"address":"Jephson St \/ Sherwood Rd","coordinates":null,"id":144,"latitude":-27.485075,"longitude":152.990627,"name":"144 - JEPHSON ST \/ SHERWOOD RD","position":null,"clusters":1},{"address":"Brisbane St \/ Glen Rd","coordinates":null,"id":146,"latitude":-27.487187,"longitude":152.993052,"name":"146 - BRISBANE ST \/ GLEN RD","position":null,"clusters":1},{"address":"Wharf St \/ Adelaide St","coordinates":null,"id":42,"latitude":-27.464647,"longitude":153.029361,"name":"42 - WHARF STREET \/ ADELAIDE STREET","position":null,"clusters":0},{"address":"Edward St \/ Queen St","coordinates":null,"id":10,"latitude":-27.468206,"longitude":153.026744,"name":"10 - EDWARD STREET \/ QUEEN STREET","position":null,"clusters":0},{"address":"Gardens Point Rd \/ Adj. Bridge","coordinates":{"latitude":-27.479004,"longitude":153.028853},"id":19,"latitude":-27.479004,"longitude":153.028853,"name":"19 - GARDENS POINT ROAD \/ ADJ. BRIDGE","position":null,"clusters":1},{"address":"Alice St \/ Edward St","coordinates":null,"id":6,"latitude":-27.472291,"longitude":153.030639,"name":"6 - ALICE STREET \/ EDWARD STREET","position":null,"clusters":0},{"address":"Sylvan Rd \/ Coronation Dr","coordinates":null,"id":142,"latitude":-27.482081,"longitude":152.995804,"name":"142 - SYLVAN RD \/ CORONATION DR","position":null,"clusters":1},{"address":"Russell St \/ Edmondstone St","coordinates":null,"id":101,"latitude":-27.478235,"longitude":153.015173,"name":"101 - RUSSELL ST \/ EDMONDSTONE ST","position":null,"clusters":1},{"address":"Shafston Ave \/ Thorn St","coordinates":null,"id":131,"latitude":-27.476792,"longitude":153.039186,"name":"131 - SHAFSTON AVE \/ THORN ST","position":null,"clusters":0},{"address":"Cordelia St \/ Peel St","coordinates":null,"id":99,"latitude":-27.474011,"longitude":153.014541,"name":"99 - CORDELIA ST \/ PEEL ST","position":null,"clusters":1},{"address":"East St \/ Ann St","coordinates":null,"id":58,"latitude":-27.455472,"longitude":153.037775,"name":"58 - EAST ST \/ ANN ST","position":null,"clusters":0},{"address":"Bridge St \/ Wickham St","coordinates":null,"id":57,"latitude":-27.454746,"longitude":153.036154,"name":"57 - BRIDGE ST \/ WICKHAM ST","position":null,"clusters":0},{"address":"Tank St \/ George St","coordinates":{"latitude":-27.468678,"longitude":153.019801},"id":32,"latitude":-27.468678,"longitude":153.019801,"name":"32 - TANK ST \/ GEORGE ST","position":null,"clusters":1},{"address":"Sydney St \/ Moray St","coordinates":null,"id":86,"latitude":-27.471422,"longitude":153.04519,"name":"86 - SYDNEY ST \/ MORAY ST","position":null,"clusters":0},{"address":"Ann St \/ Wharf St","coordinates":null,"id":41,"latitude":-27.46383,"longitude":153.029125,"name":"41 - ANN ST \/ WHARF ST","position":null,"clusters":0},{"address":"Griffith St \/ Riverview Ct","coordinates":null,"id":81,"latitude":-27.471886,"longitude":153.041854,"name":"81 - GRIFFITH ST \/ RIVERVIEW CT","position":null,"clusters":0},{"address":"Hardgrave Rd \/ Skinner St","coordinates":null,"id":104,"latitude":-27.482082,"longitude":153.006981,"name":"104 - HARDGRAVE RD \/ SKINNER ST","position":null,"clusters":1},{"address":"Makerston St \/ Roma St","coordinates":null,"id":34,"latitude":-27.467037,"longitude":153.018471,"name":"34 - MAKERSTON ST \/ ROMA ST","position":null,"clusters":1},{"address":"Bouquet St \/ Montague Rd","coordinates":null,"id":128,"latitude":-27.471712,"longitude":153.013188,"name":"128 - BOUQUET ST \/ MONTAGUE RD","position":null,"clusters":1},{"address":"Albert St Mall \/ Adelaide St","coordinates":null,"id":13,"latitude":-27.469183,"longitude":153.024719,"name":"13 - ALBERT STREET MALL \/ ADELAIDE STREET","position":null,"clusters":0},{"address":"Roma St \/ Garrick St","coordinates":null,"id":36,"latitude":-27.466307,"longitude":153.017351,"name":"36 - ROMA STREET \/ GARRICK STREET","position":null,"clusters":1},{"address":"Kilroe St \/ Dorsey St","coordinates":null,"id":137,"latitude":-27.472413,"longitude":153.001803,"name":"137 - KILROE ST \/ DORSEY ST","position":null,"clusters":1},{"address":"Balfour St \/ Brunswick St","coordinates":{"latitude":-27.463431,"longitude":153.041031},"id":79,"latitude":-27.463431,"longitude":153.041031,"name":"79 - BALFOUR ST \/ BRUNSWICK ST","position":null,"clusters":0},{"address":"38 - Ann St \/ Creek St","coordinates":null,"id":38,"latitude":-27.46588,"longitude":153.026861,"name":"38 - ANN ST \/ CREEK ST","position":null,"clusters":0},{"address":"Albert St Mall \/ Elizabeth St","coordinates":null,"id":14,"latitude":-27.47011,"longitude":153.025627,"name":"14 - ALBERT STREET MALL \/ ELIZABETH STREET","position":null,"clusters":0},{"address":"Turbot St \/ Bowen St","coordinates":null,"id":45,"latitude":-27.462665,"longitude":153.029087,"name":"45 - TURBOT ST \/ BOWEN ST","position":"France","clusters":0},{"address":"Edward St \/ Queen St","coordinates":null,"id":1,"latitude":-27.46812,"longitude":153.02682,"name":"1 - EDWARD ST \/ QUEEN ST","position":null,"clusters":0},{"address":"Cordelia St \/ Ernest St","coordinates":null,"id":116,"latitude":-27.481137,"longitude":153.019284,"name":"116 - CORDELIA ST \/ ERNEST ST","position":null,"clusters":1}]